Venue,lat,lon
Baku,40.395,49.43
Dublin,53.3239919,-6.5258808
London,51.5287718,-0.2416802
Glasgow,55.8553807,-4.3725403
Amsterdam,52.3547498,4.8339211
Bilbao,43.2633534,-2.951074
Copenhagen,55.6711876,12.4537421
Munich,48.155004,11.4717963
Budapest,47.4813602,18.9902209
Bucharest,44.4379269,26.024598
Rome,41.9102415,12.3959153
St. Petersburg,59.940461,29.8145014
